site_liste,long,lat
tihore,2.633916667,12.86705
bani_zoumbou__tchouro_ham_,2.471433333,13.12933333
foulan_zam,2.879683333,13.32685
djogo_koira,2.95565,12.90178333
kolbou_peulh,2.968466667,13.36515
tombo_gaboakoye__rcv____mai_gari_koira___,0,0
goumbi__kongore_loutou_koira_,2.943766667,13.55331667
koulou_peulh__gao_bangou_,2.970083333,13.60991667
barbe_sire,2.865716667,13.17033333
doulouwel_djerma,2.772333333,13.21318333
fandoga,2.9115,13.1705
chagari_peulh,3.551833333,12.52865
gueza_bissala,3.5206,12.41915
tounga_mai_tela,3.616666667,12.62818333
tsamia_firore,3.59735,12.61103333
angoual_zanaou__angoual_baraze_,0,0
angoul_doua_abarchi,3.60495,12.7576
garin_sabo__dan_mangoro_,0,0
kalgo_peulh,3.644016667,12.82195
tounga_basso,0,0
tribu_i__rouga_angoual_damagani_,0,0
angoual_kassa,4.292433333,13.82305
fanna_garre,4.180783333,13.82235
garin_tabadadaje,4.35735,13.67313333
gigalawa,4.181833333,13.5788
kalgo,4.19115,13.49546667
rouga_kara,4.196483333,13.72016667
arawa_doutchi,4.022766667,13.64381667
herey,0,0
akoira_peulh,4.372683333,14.18298333
doula,4.339716667,14.20125
doutchi_zango,4.413883333,14.27668333
inates_ii,4.270816667,14.21416667
kadade,4.1703,14.07556667
mayssoro_dagna,4.157583333,14.0515
rouga_kantcham,4.045366667,13.36583333
tareitache,4.021583333,13.5142
belaye_ambouta,4.06055,13.97198333
birnin_lokoyo,4.038683333,13.8054
doundaye__garin_boka_,3.888966667,13.82966667
garin_issaka,3.994533333,13.86561667
garin_mani,0,0
garin_moutari,3.88225,13.82011667
garin_salaou,3.89115,13.82891667
garin_sani,0,0
garin_tagoua,3.989716667,13.8751
goriba,4.0607,13.85641667
haoussawa,4.05975,13.93758333
salga_angoual_kaji,4.150533333,13.93488333
bawadawa,4.04785,14.09381667
dagazaria,3.930066667,13.98045
kolifo,3.94605,13.97576667
marina,3.807483333,14.12283333
sakarou,3.934733333,14.0152
toudoun_biri_ii,4.01935,14.11165
toudoun_gao,4.04755,14.10961667
toulou_warkou,3.942016667,14.29298333
dede_chantier,3.215733333,12.59806667
libo_zeno,3.379166667,12.48286667
tombon_garba,3.261333333,12.37698333
banikoubey_niandou,3.103833333,13.40493333
campement_peulh_poullo_kari,3.095833333,13.33338333
marigouna,3.171416667,12.60538333
tchiara_dole,3.0485,12.95643333
tibi_tagui,3.185883333,12.54463333
rcv_koumbokoy_dey,3.270883333,12.9252
aouli_koara,3.49245,12.89626667
bolbol_kodi_badoum,3.5321,12.90828333
diankourana_koira,3.47885,13.04961667
zanga_babadey,3.487383333,12.82845
ladan_dey,3.524883333,13.50156667
say_tombo,3.398316667,13.31433333
tchoulan,3.38435,13.37331667
campement_peulh__gabikane_,3.064533333,12.30275
kobki_tanda,3.114483333,12.46861667
marafa_koira,3.39405,12.87171667
anka_dey,3.542583333,13.21191667
campement_peulh__fandobon_tombo_,3.459533333,13.238
farera,3.441866667,13.32181667
tanda,3.6033,13.33435
boube_koira,3.789233333,13.48126667
diguinaboun_zounkoara,0,0
marake,3.878816667,13.46191667
zanga_koara,3.628933333,13.09891667
tchantchoga_peulh,0,0
zongo_koira,2.999033333,12.30038333
bouringa_beri,2.8881,12.59795
darfou_tounga,3.266716667,12.01975
gondo_guinde_alfagay_belande_,3.263933333,12.0521
goungo_ra,3.263183333,12.04211667
guawado,3.292183333,12.04041667
mango_do,3.310866667,12.0271
tanda_koyekoira,3.2527,12.07433333
thielkabaye_koungou,3.30365,12.0426
tribu_albarkaize,3.2228,12.122
ladan_koira,3.630933333,11.737
garin_goni_1,3.302083333,12.24538333
garin_ladan,3.477933333,12.11685
illela,3.553816667,12.21275
jarin_wanke,3.438466667,12.21545
tombo_kaina,3.421633333,12.09611667
tounga_maissadje,3.445966667,12.3216
falwel,3.593,13.52325
guida_ga,3.613533333,13.5373
kodey,3.71585,13.60116667
kofiti,3.53785,13.65321667
sarkin_noma_koira,3.64165,13.46963333
djibo_dey,3.444483333,13.56395
sabarara,3.320616667,13.66385
tombo_tameye,3.37865,13.55591667
tounga_gazari,3.936083333,13.04571667
garin_madi_toude_zarma_,3.803383333,12.67181667
garin_nabade,3.806983333,12.8772
houri,3.798416667,12.85385
kobia_tounga_noma,3.845966667,12.69441667
sabon_gari,3.8994,12.98626667
wassangou,3.801966667,12.90738333
fadina,3.759666667,13.18063333
illela,3.8041,13.3136
rouga_maman_maouda,0,0
rougal_alou_hama,0,0
garin_dambo_doubou,4.095766667,13.22821667
garin_maitoukane,0,0
rey___rey,0,0
sarmakon_toudou,4.0741,13.1683
tombon_bouya,0,0
wagifa,0,0
zayrou,0,0
adgoul,0,0
arigoulane,6.48005,15.78605
chinetagharnane,6.24755,16.05296667
chiremene,6.29225,15.61076667
inabalasse,6.285166667,15.45183333
inwala_ii,6.285166667,15.45183333
tadjagarate,6.47935,15.61231667
tagalalte_chinwalaghane,6.293733333,15.6591
takakout,6.18705,15.74455
tan_wili,6.5314,15.68198333
tanafi,0,0
tantibass,6.105033333,15.73166667
terghess_tan_babi,6.201333333,15.54395
achetaboukoumt,5.887733333,15.37296667
bargagi_peulh,5.954516667,15.10005
chimgarzenatt,5.875633333,15.04718333
tabalak,0,0
tassako_tassakok,6.239116667,15.15086667
tazek_i,6.183183333,15.29696667
tinilat,6.0273,15.28491667
wanalhawa,5.942183333,15.16835
wanalhawa_tantelinte,5.94065,15.19051667
attoun_gour,0,0
hadukan_sara,6.404733333,14.79186667
waka_wala,6.487416667,14.75411667
intougouzou_iboyaran,0,0
marbadama,5.736383333,15.07046667
salam_lekoum,5.676266667,15.26175
sofoua_mararaba_kao,5.798816667,15.23003333
zango_kajigo_,0,0
tchiziyan,6.253483333,15.68311667
waktanna,7.0966,15.64251667
akassou_folakana,4.433516667,14.64106667
akassou_peulh,4.429316667,14.64051667
bagaroua,4.578966667,14.55628333
bila,4.722133333,14.36581667
chetalli,4.733983333,14.11515
falaley,4.52735,14.17901667
faska_bahago,4.61675,14.45708333
garin_ajiyao,4.430966667,14.586
garin_banaou,4.703916667,14.36815
iskita__iskita_gohe_et_bage_,4.605833333,14.52716667
katsari_jannare,4.474033333,14.34553333
kouldamiya,0,0
lolam,4.690166667,14.1952
maijaka,4.735383333,14.0544
mani_ada,4.539666667,14.51496667
mani_hassan,4.510183333,14.50136667
rougga_jouli,4.59,14.17351667
somaki_i,4.780066667,14.15386667
taosseye_garin_gabas,4.554783333,14.44105
taosseye_kouldamiya,4.549566667,14.44051667
tchiraga_toudou,4.747933333,14.2162
zongo_zouza,4.749233333,14.47485
berkel_baizo,4.77205,13.86348333
garin_elhadji,4.776033333,14.06913333
goumbi_n_kano,4.921583333,14.01426667
hagna_sarki,4.849466667,13.84108333
kankarey,4.7463,13.9045
keinkeletchi,4.96985,14.1007
waka_zouwa,4.74615,13.76835
ambouta,5.125633333,13.75181667
bazaga_koli,5.085833333,13.79396667
labada,5.009466667,13.76966667
machekara_d._daji,0,0
rouga_birema,4.97965,13.76735
tajaye_gazourawa,4.98375,13.76193333
ingarge,5.078633333,13.93768333
matan_karawa,5.252016667,13.80368333
mounki,0,0
sanyinna,5.0361,13.9847
tcherassa_goune,5.296066667,13.83793333
zata,5.077916667,13.94651667
guidan_bawa,5.374033333,13.9993
mai_foula,5.290366667,13.93361667
mozague_peulh,5.4666,13.88466667
tcherassa_peulh,5.32165,13.8455
tsaouna_gomma,5.338916667,13.9788
zango_magouza,5.37035,13.99796667
zongon_nadabar,5.380316667,13.88223333
guidan_kore,5.856733333,14.52326667
danala_baban_katami,6.256,14.52561667
kagarkawa,6.38275,14.38503333
koundoumawa,6.2964,14.59481667
zangon_tourda,6.286483333,14.6179
binguimawakiaro,6.194216667,14.4147
chindigui_killa,6.09165,14.3693
dougouna,6.0442,14.42326667
kouraye_garadoume_kore,5.990866667,14.38263333
toullou_boukoui,6.0875,14.43148333
tountoube,5.989416667,14.25626667
zongon_tako,6.022666667,14.44368333
zonkokan,0,0
zourmani_guidan_gabdoua,6.071766667,14.40338333
kwazara,5.99985,14.61736667
zongon_mardo,6.032133333,14.58963333
fotinguel,6.335783333,14.36495
gamji_awa_his,6.209516667,14.30826667
guidan_matchouda,6.302233333,14.3755
kouroukourou,6.430716667,14.32333333
maimaraoraye_maikaraoureye,6.1783,14.2448
sabon_sara_gabass,6.20295,14.38808333
zangon_guajerre,6.364666667,14.45038333
zangon_harouna,6.41965,14.39135
zongon_abouzeidi,6.266233333,14.32318333
drakou_tagalati,6.2175,14.63088333
lougou,6.1238,14.62741667
yamamane_zongo,0,0
hanchin_mago,0,0
karba,5.733483333,14.19676667
sammo,0,0
bougi_i,5.4467,14.51403333
goussoussou,5.598266667,14.35915
kaoura_moullela,5.65845,14.47316667
sabon_carre,5.3722,14.45808333
sayouna,5.632933333,14.37546667
tounga_saddi,5.42465,14.55348333
yama,5.497466667,14.35938333
zango_roukou_zoum,5.493683333,14.43786667
zongan_moujia,5.388216667,14.3699
azao,5.124533333,14.42851667
dalle,4.964816667,14.47826667
dangada_makouna,5.15715,14.22668333
dangona,5.0416,14.2678
gueza,4.980366667,14.232
guidan_karo,5.281633333,14.37136667
kassafeye,5.291183333,14.54105
kondago,5.279166667,14.52165
lama,4.987033333,14.1084
talara_sami,5.163983333,14.13266667
toudoun_lissawan,5.14235,14.13401667
tounga_tsakoni,5.181533333,14.4331
doudougue,5.447483333,14.26761667
gorge_eguef,5.235716667,14.16235
guidan_saage,5.277683333,14.15321667
machekarin_bagoudou,0,0
oure_takachewar,5.412583333,14.23648333
roumbouki,5.288766667,14.21895
tounga_alao,5.52545,14.23426667
zangon_dabagui,5.160483333,14.16353333
zangon_kanamou,5.344816667,14.15503333
zangon_yama,5.347933333,14.16845
guidan_dan_goari,5.728533333,14.64623333
guidan_mani,5.884883333,14.60146667
guidan_tawaye,5.97025,14.56935
jangargari,5.9598,14.69668333
kouzina,5.980383333,14.70381667
maini_kelgress_ii,0,0
tajae,5.73605,14.6577
tchimbaba_tane,6.02685,14.70345
charingue_tajae,5.831216667,14.80568333
daket,0,0
eress,6.236716667,14.84941667
ibohamane,5.9309,14.79386667
jeji_badou,5.888616667,14.7327
mahana,6.11815,14.7689
sabon_gari_karkamat,6.087083333,14.9332
tinkirana_tounga,5.924433333,14.88345
toundoun_gabirawa,6.09955,14.82236667
akoukou_ikejeik,0,0
boussarague,5.732316667,14.98055
garin_moussa_bague_garin_moussa,5.824183333,14.7351
guidan_fako_et_gorey,5.736233333,14.74648333
hopital,5.772883333,14.75583333
iboyaran,5.754183333,14.70456667
intchimia,5.854366667,14.7728
kirari,5.814316667,14.74265
bourdi,5.571616667,14.57433333
dououbeye_tchedia_et_sabon_guida,5.542433333,14.54245
idikin_fague,5.664683333,14.73316667
karadji_gangawa,5.5777,14.70003333
moullela_guidan_fako,5.6181,14.69763333
mouya,5.531133333,14.57391667
jangare_sedentaire,5.968983333,14.16816667
birni_beidi,6.019266667,13.69643333
guidan_malan_ango,6.168966667,13.66221667
kankirawa,6.094883333,13.68573333
karaouraye_et_souley,6.070166667,13.8647
kataguiri_garin_kantou,6.258016667,13.67723333
roumboukawa,6.22645,13.84955
roumboukawa_mowal,6.129683333,13.69096667
tiddit,6.082466667,13.71548333
tsaoua,0,0
zangon_malamey,6.0345,13.70931667
baltana,5.8003,14.12201667
galma_nomade,5.85165,14.10111667
baousa_kona,6.05675,13.98706667
boudounkoye_tchinkaousso,6.016,14.17138333
doneye_doutchi,6.132866667,14.08908333
jayaou,6.037783333,14.07426667
zongon_chitan,6.11445,14.17458333
dan_magaji_garin_magagi,6.592333333,14.23438333
garin_gabass,6.491716667,14.18868333
hinjirkou,6.482233333,14.23416667
kagarki_et_kagarkoua,6.345483333,14.23896667
maizama,6.521266667,14.24386667
manzou,6.3235,14.04493333
toubou_toubou,6.319816667,14.10096667
zongo_agoua,6.489333333,14.21641667
guidan_haido,5.779616667,13.93325
koumassa,5.880833333,13.87488333
koundigue_sarki,0,0
lakoumawa,5.998866667,13.99096667
tadada_tchimola,5.904416667,13.99183333
toudouni,5.980816667,13.78433333
watcha_haido,5.866316667,13.90318333
dogeraoua,5.588266667,13.96325
doutchi_hama,5.6583,13.87983333
el_adoua,5.637683333,13.9726
ganfa,5.701116667,14.1456
gounfara,5.712383333,14.17293333
guidan_miko,5.675083333,13.99656667
guidan_tsoho,5.658616667,14.01641667
moulela_i_et_ii,5.66615,14.00328333
moulela_sambo,5.6744,14.0532
moussoukou,5.674583333,13.98521667
soutoura,5.678733333,14.1459
toudou_adaraoua,5.613183333,13.95521667
tsohon_zama,5.648133333,14.08965
zongo_tagadem,5.725466667,13.9345
dabagui,5.39195,14.09476667
guidan_alahiya,5.422183333,14.08223333
guidan_dodo,5.393166667,14.01818333
guidan_hassane,5.5093,14.19308333
guidan_makaho,5.386433333,14.05623333
guidan_soumeye,5.27995,14.05036667
ifrinkawane,5.588733333,14.14306667
kandabare_zango,5.45415,14.07141667
karni_maguichiri,5.50635,13.94911667
sabon_gari,5.383483333,14.09855
takorka,5.408666667,14.03658333
takoro,5.290233333,14.00713333
tounga_louhoudawa,5.559133333,14.11108333
zango_amagadass,5.438,14.07336667
zango_kelle,5.441283333,14.0749
allela,5.038,15.32415
chimbiyawane,5.27145,15.19143333
doutchi_guililli,5.038933333,15.02636667
fadama_tafagag,5.067516667,15.28931667
tamadasatt_chimadassat,5.166083333,15.27495
touwak,5.232816667,15.30575
galatan,5.153233333,14.54833333
guilleye_kore,4.99215,14.49206667
kossoma,4.868883333,14.81966667
marega,5.333516667,14.59053333
tenaran,5.049133333,14.7651
tounga_anarba,4.839483333,14.62046667
tounga_hanni,4.984583333,14.64525
yan_kalague,5.053816667,14.74426667
ikakan,5.437333333,15.08601667
toro,5.392333333,15.00333333
adouna_guidan_toudou,5.57315,14.75468333
garin_galo,5.564216667,14.9485
atibis,4.719916667,15.1293
hameau,4.8964,15.16741667
lokojoro,4.74675,15.0963
loukoumbou,4.907233333,15.18276667
moullela,4.953733333,15.1561
tadiss,4.977566667,15.04503333
takanamat,4.77715,15.13706667
touffar,4.861466667,14.98596667
tounga_yara,4.854066667,15.16523333
bilingue,4.163866667,14.90458333
doutchi_chiguinawane,4.655816667,14.74926667
intakana,4.162066667,15.10311667
mai_magaria,4.485333333,14.85206667
sayelle,4.5949,14.6465
akazaye,0,0
alhaoudaca,0,0
amarassa,5.626016667,16.72328333
aroukoub,0,0
assabansab,0,0
bire_gouffa,6.0361,17.0582
birni_wejam,5.906233333,16.83963333
chinaghwenat,0,0
fds,5.645266667,16.80698333
inchilit,0,0
iniezmeye,0,0
innakarazraz,0,0
intizintiz,6.046083333,16.65646667
miguiza,5.33665,16.51978333
tachigarte,4.65702,16.71211
tanbwalli,0,0
tarissadat,5.492233333,16.47718333
tassak,5.611583333,16.64405
tingengal,0,0
tizigaret,5.87105,16.87608333
wan_algalass,0,0
wan_nidiwane,0,0
akalafa,5.869966667,15.50466667
chimikidal,5.631033333,15.48571667
ching_arzenatane,5.366583333,15.42123333
chinnabarami,5.778016667,15.45815
damayok_ii,5.765683333,15.59476667
ekankar,0,0
ezagh,5.669816667,15.4658
gharachat,0,0
inniguiri,5.3861,15.18618333
intafagat,5.716766667,15.5986
intetof,5.4391,15.49806667
louba,5.7649,15.39846667
takajit,5.849683333,15.57931667
tan_minetere,5.734583333,15.65766667
toukoukout_garmi,5.7166,15.35968333
ziguet_djibo,0,0
amataghtag,6.066666667,16.20651667
amokaye,5.377383333,15.62256667
atalak,5.619883333,15.61685
chibital_inagar,6.605483333,16.06698333
chinchinanan,5.3477,16.11355
ibirgidid,6.1926,16.1228
infirji,5.872616667,15.86395
intablate,5.845383333,15.91578333
issiwinmidghan_inagar,6.501116667,16.06055
magalaloum,5.521066667,16.2416
tangue_zatane,5.939866667,15.81558333
wan_jian_inagar,6.54075,16.1263
zirkat_imiguila,0,0
aderzagrene,4.684483333,15.84796667
amalgon,0,0
chigoumman,0,0
imoulale_imoul_intailene,4.770833333,15.45
infasseini,5.041666667,15.84545
infilinjiwan,0,0
innassagan,5.36575,15.36361667
innibbong,4.74105,15.57243333
intaragamat,4.682233333,16.1565
intikane,4.714088814,15.64360144
ohibadak_dahen,5.305566667,15.27271667
tabalolt_i,4.708,15.3663
tadgouni,0,0
tagalalte,4.791866667,16.20095
tajawak_jawaki,4.710683333,16.13431667
taksanainasse,4.634366667,15.95483333
taloukamest,0,0
tanfagagan,4.74305,15.71816667
telemces,4.783083333,15.62426667
garin_amin,5.3185,14.8096
ibiki,5.264616667,14.89058333
kolloma_dabagui,5.325816667,14.88331667
kourdaou,5.283033333,14.9567
marake,5.354833333,14.85773333
mararaba,5.342433333,14.78221667
akora_jankarhi,5.163566667,14.83991667
amaddoukkou,5.2146,14.82373333
bakin_dabagui_illiass,5.181016667,14.8512
bakin_dabagui_tajika,5.178116667,14.8752
concorbeye_peulh,5.241383333,14.78218333
guidane,5.176016667,14.79913333
magariawa,5.150266667,14.81656667
majema,5.197266667,14.8021
rafin_kalgo,0,0
raya,5.250616667,14.96923333
sanfada,5.148466667,14.85296667
tagarara,5.22365,14.94085
tagueye_peulh,5.08465,15.02186667
talabe,0,0
toudoun_kiara_haoussa,5.230766667,14.81773333
toulkou_anza,5.1462,14.79021667
tsamawa,5.262333333,14.88821667
tsanganak_koura,5.140983333,14.9694
abala,3.432316667,14.93086667
abala_toudou,3.432316667,14.93086667
garin_targez,3.39725,14.878
garin_wadey,3.177016667,14.91643333
gorgabi_1,3.414983333,14.86763333
intichilfaye_kore,3.4692,14.87155
jakassa,3.393083333,15.0505
keltizembet_4,3.400816667,14.83053333
kongimit,3.579666667,14.92561667
malass_garin_louna,3.697316667,14.7015
miel_ciminit,0,0
tamatey,3.246083333,15.10315
tillimoune,3.797666667,15.18203333
dan_bangaye,0,0
dan_gari,3.917766667,14.85901667
dawoyi,3.86295,14.644
ezza,4.073183333,15.13166667
garin_abay,3.92895,14.91938333
garin_attikou,3.8337,14.63493333
garin_lahama,3.832433333,15.08801667
garin_nagaouna,3.835316667,14.66095
garin_sama,3.830366667,15.10498333
garin_tcherou,3.91895,14.7653
goumbi,4.222983333,14.54331667
market_dounna,4.050866667,14.83423333
takouka_tamachi,3.788333333,14.76015
tsaloulou,3.941783333,14.6347
dafale,0.900233333,14.6608
daya_sedentaire,0.885083333,14.67223333
doulsou,0.896283333,14.7469
doumbou,0.915416667,14.69821667
dourkoungi,0.9183,14.68951667
firgoune_goungou,0.876683333,14.8098
kouli_koire,0.877483333,14.76708333
tissow,0.9172,14.68791667
weilabon_adam_galassi_koira,0.908383333,14.76196667
haguaye_touareg,1.2405,15.0772
ingamane,1.3833,14.87235
kodi_dare_salam,0,0
n_nighighi,0,0
sawani_i,1.229483333,14.7053
tabarbereye,0.978766667,14.77793333
tarhabout,1.206783333,14.75195
tidikit,1.1657,14.89873333
tidirgalene_bibiyorgou,1.025633333,14.87808333
tigazaratene,1.051066667,14.91946667
alfa_kouara,3.008333333,13.63513333
bani_zoumbou_ii,2.927583333,13.83276667
borgo_darey,3.040083333,13.66178333
borgo_gorou_ii,3.041033333,13.64738333
dabey,2.911316667,13.51608333
datche,2.733216667,13.66421667
fari_beri,3.026166667,13.723
foga_banda,2.915483333,13.67556667
fouta_izeydo_kokoro_fandou_4,2.620633333,13.86126667
gambina_bangou,3.017716667,13.65341667
gonga,2.65985,13.79523333
haini_fada,2.720266667,13.75536667
izagagadane,2.94495,13.76796667
kali_gorou,3.0101,13.62671667
kalley_kouara,3.071716667,13.6166
ko,2.633133333,13.7869
koudou_gari,3.01775,13.8043
lele_ii,2.969066667,13.65926667
n_gawa_dantchindou,2.9482,13.7528
soudjey,3.02165,13.68741667
timbarkawane_ii,2.929333333,13.76415
timboran_tarbanassa,2.894383333,13.80695
tinkafa_ii,2.920883333,13.71601667
tizayitt_bangou_fansi,2.783933333,13.81761667
tondikire,3.03595,13.69421667
tourakou,2.954266667,13.78728333
winde_gaweydo,2.924766667,13.70071667
winditane,2.89045,13.7572
adabdab,2.339633333,15.07591667
alfa_koira,2.41755,14.9519
banibangou,2.701333333,15.03948333
banibangou_zarma,2.701333333,15.03948333
banokokorbe,2.075933333,15.12295
bassikaina,2.701333333,15.03948333
campement,2.74015,14.89646667
darey_sossi,3.0075,15.13106667
deke_deke,2.37875,14.93668333
dey_koukou,2.52445,15.10711667
dimassi_koira,2.6109,14.74833333
falanzadan,3.051283333,15.07048333
falanzadane_goroutche,3.06365,15.07251667
fando_bon,2.388966667,15.14731667
ganganora_ii,2.32965,15.10976667
gnandou_kouara,1.87255,15.13588333
goulla,2.721866667,14.8309
inkourou_gorou,2.16805,15.0363
kodo_kouara,2.383016667,15.18536667
kouara_tegui,2.341683333,15.1598
sabon_gari,2.674966667,14.77051667
tchofologa,2.513116667,14.94816667
walou_koira,2.254566667,15.20956667
wiye,2.7756,15.01948333
zakari_kouara,2.301916667,14.88573333
adar,0.70485,14.55203333
aguirmam,0,0
chifala,0.612733333,13.98761667
fala,0,0
fissikim,0.588033333,14.36216667
ibangane,0,0
iguigui,0.943866667,14.25721667
illey_campement,0,0
imbachamane,0,0
ingari__tintachit_,0,0
ingari_barradje,0.6821,14.55223333
inkilwatane,0,0
inlamboutane,0,0
kangoria,0,0
kel_eguef,0,0
koumek,0.74475,14.49091667
koumek_abouba,0.722383333,14.51468333
koy_koy,0.77205,14.69481667
nambirma_ii,0.6238,13.9233
sakirbangou,0.982616667,14.32206667
sassareye,0.645216667,14.60606667
silgou_tanguidad,0,0
tadareit,0.725783333,14.67243333
tamboragan,0.853433333,14.6278
tassoumoumate,0.674983333,14.57181667
tatararat_eguef,0.820366667,14.65636667
teguiech,0,0
tinbakat,0.937733333,14.40155
tintakaneyt,0.507083333,14.25685
walat_agarouss,0,0
akwata,3.303883333,14.18151667
dan_marke_karama,3.41285,14.51105
dirga,3.291716667,14.18371667
fakaye,3.377833333,14.43378333
garin_laloua,3.3275,14.3897
gazaoua_1,3.410083333,14.30675
hopital_de_district,0,0
kanya_ize_ii,2.841033333,14.30216667
mai_kogo,3.412333333,14.39006667
massama,3.287616667,14.22183333
takoussa,3.27115,14.63443333
talcho,3.3653,14.5785
tapkin_ganda,3.426183333,14.60871667
koira_tegui,3.171616667,13.95971667
arawa,3.422183333,14.14245
chical_lokoko,3.461666667,14.25245
itchiguine,3.395183333,14.07711667
tombo,3.342183333,14.02441667
village_administratif,0,0
diney,2.82555,14.13191667
fadi_foga,3.078266667,13.8708
gonga,2.610016667,14.0559
kossey,2.819266667,14.20863333
takaberi,0,0
talibi_dey,2.835216667,14.18856667
talla_bangou,2.799883333,13.9554
tokoyan,3.1521,13.92646667
tondi_banda,3.150316667,13.957
wahadi,2.987533333,14.06051667
bango_koira,1.350116667,13.84096667
boubene,1.073883333,13.9585
boye_kado,1.211466667,13.83106667
buiga,1.223466667,14.08555
doulgou_i,1.007616667,13.74383333
gorobanda,1.245433333,13.90643333
grambassa,1.227433333,13.9536
gueriel,1.356833333,13.79981667
hillo_koira_zeno,1.383716667,13.67916667
kalfoussou_gangano,1.398433333,13.93501667
kodjoley,1.265216667,13.80651667
kossorey_banguia,1.3287,13.67968333
koubieye_djero_tchire,1.206283333,13.94205
koulbaga,1.1794,13.90138333
sartchi_koira,1.378783333,13.71901667
sebango,1.37005,13.70966667
seserye_hc,1.077966667,13.95445
sombangou_hc,0,0
tikinde,1.409683333,14.07756667
timbel_bella,1.449833333,14.04921667
waraw_dabo_koira,1.160016667,13.6645
boureima_bangou,1.2725,13.66646667
garigarey,0,0
hameau_lossa_goungo,1.472866667,13.95283333
hamey_bouno,0,0
kakassi,1.474566667,13.84955
koulikoira,1.484316667,13.87023333
labangou,0,0
laodji,0,0
peldire,1.479716667,13.98095
talhana_gorou,1.33105,13.62215
badoulere,1.969516667,13.55305
ouro_foulbe,1.923016667,13.284
campement_peulh,0,13
deytadji_gamna,2.307583333,13.6863
kiram_fandou_beri,2.496833333,13.75868333
louga_ganda,2.331266667,13.57006667
tondikirey,0,0
zouragane,2.539016667,13.77111667
bangawi_zarma,1.84815,13.65526667
bangoula,1.994133333,13.60321667
boulkou,2.080083333,13.82698333
forio_ganda,0,0
kanta,1.8378,13.66521667
maourey,2.041,13.82425
talbiya,0,0
gamsa_do,2.520516667,12.55596667
gandatche,2.402633333,12.95053333
kongou_zougou_z,2.383716667,13.23205
sina_kouara_lissore,2.645566667,13.27585
yaboni,2.22315,13.54675
guesselbodi_bodi_alfa_koira,2.36335,13.43103333
congo_dobi,1.465316667,13.56363333
koutoume_daberou,1.490683333,13.60793333
podje,1.72615,13.60961667
toufangal,0,0
damari,2.247516667,13.22886667
goubel,2.1904,13.3708
mansare_boura,2.154266667,13.36253333
peta_gounga,2.24585,13.22665
youri_singo,2.247483333,13.32461667
kombo_kouara,2.71945,14.57283333
bonda_alfa_kouara,1.709183333,14.17596667
boudada_goubeydo,1.757466667,14.19773333
boudada_ouallam_izedo,1.8677,14.15883333
dane_bere_koira,0,0
donoumoro,2.3018,14.31098333
firaou_beri,1.9512,14.22813333
ganganora,1.945766667,14.2972
hima_koira,2.019866667,14.18708333
koran_sabo_alpha_koira,0,0
koran_sabo_sodja_koira,0,0
ouallam,2.08745,14.313
sabo_koira,2.189833333,14.26505
alzouma_koira,1.948866667,13.93483333
banimate,2.052266667,13.98685
boye_koira,2.240983333,13.89863333
darey_gorou,1.822583333,14.0536
dimba_koira,0,0
fandou_simo_koira,0,0
fondara_elhadjeydo,0,0
gorobon_alfaga_koira,2.0285,13.99225
kokorbe_bangou,2.458966667,14.03648333
kongoudarey,2.265083333,13.94506667
sabey_do,1.9939,13.90716667
sakaley_tondi,0,0
samari_koiara,0,0
satara,2.089866667,14.10256667
sinsan_tondi_koira_zeno,2.060133333,14.06263333
bagou,1.840616667,14.69206667
bare_bangou,2.270466667,14.74933333
ganganora,1.78115,14.45571667
kano_kouara,2.050133333,14.43196667
mangaize,1.950933333,14.68318333
sassaga_kouara_kaira,1.97555,14.92331667
barkewa,2.058466667,13.07378333
boulaba,1.8483,12.82136667
ouro_sory_rimaibe,1.977833333,13.07635
sakirey,1.856283333,12.83713333
seno_mango,0,0
tchelol_djegou,2.090833333,13.09785
dokimana,2.3278,13.027
gandatche_kourtey_do,0,0
garin_gouzaye,2.119233333,13.06203333
goulla_yeno,2.364666667,12.97716667
karadje,2.359383333,13.02028333
karidje_balleydo,2.34685,13.14951667
kato_kouara,2.332816667,13.0208
louga_banda,2.314616667,13.00938333
banga_dondi,2.392266667,12.85036667
baoule_sidikou,0,0
chenel,0,0
combite_kouara,2.318583333,12.77083333
djangore,2.260566667,12.9545
fata_bogga_i,2.3373,12.84381667
fata_bogga_ii,2.322683333,12.84363333
fata_namari,2.343683333,12.80758333
guieme,2.47075,12.76743333
kodjelele_ouri_fulbe,2.316833333,12.9931
kotaki_i,2.044533333,12.94596667
sekou_koira,2.474,12.7591
soudimo,2.297766667,12.72165
tchelawindeeda,1.997383333,12.98993333
windi_bogga,2.0397,12.93643333
fete_koukoutou,0.777733333,13.91743333
amzak_koira,0,0
dabirsi,0.507466667,14.5557
gomni_gori,0.4119,14.81491667
wissi_wissi_sonrai,0.502833333,14.62243333
alfa_koira,0.990983333,13.95308333
diba,0.906033333,14.21098333
farey_banguia,0.880333333,14.2071
gadogo,0.68625,14.40128333
gandey_bera_,0.867566667,14.38213333
gaya,0.750333333,14.3451
gorou_tchira,0.928683333,14.07818333
margou_tondikoira,0.802833333,14.23823333
moto_banguia,0.781716667,14.28368333
saadou_gala,0,0
salmoussou,0.897283333,14.0612
sedey,0.74435,14.33605
tida_nanga_i,1.045966667,14.21036667
tinglala,0.697083333,14.23361667
tondiey,0.932733333,14.37498333
zaney,0.861,14.45198333
badjoli_i,1.176683333,14.36226667
bangou_koira,1.128033333,14.40955
gourabon,1.077716667,14.48888333
laygoussou,1.109783333,14.43948333
loufame,0.995566667,14.59965
sabara,1.01835,14.55728333
siram_fambita,1.009316667,14.35028333
baladjo,0.598883333,14.08673333
camp_de_garde,0,0
foutan_koira,0,0
lourgou_bangou,0.715933333,13.92743333
djabiyaga,1.03,14.56413333
famale,1.082766667,14.55106667
gabou,1.043366667,14.59773333
gara,1.020133333,14.56215
goria_foumbia,0.994866667,14.61313333
kougoumoussey,0.997033333,14.61963333
nassire,1.153583333,14.43375
tahagana,1.025683333,14.60465
tamalo,1.042333333,14.5565
amouna,1.5881,13.82991667
bougueydo,1.614233333,13.80601667
boukou_koira_zeno,1.53245,14.09165
dabey,1.694516667,14.05193333
dabeyze_koira,1.737933333,13.90398333
kouboutchire,1.56305,13.91226667
koulyami,0,0
koumadjinde,1.5613,13.9476
kourani,1.520033333,14.05998333
mignadawey_tondi,1.7301,13.98896667
sorbon_haoussa,1.605416667,13.8581
soubnia_bangou,1.754166667,13.89203333
tchale_koira,1.796233333,13.97378333
tourbey_bangou,0,0
tourkouli_peulh,0,0
zahay_tiko,1.534566667,13.9453
namari_gougoun,1.2574,14.3501
sakoira,1.399066667,14.27718333
tondi_taharey,1.397766667,14.3015
bossa_kire,1.366633333,14.26441667
soubougoungou,1.172066667,14.3753
tchadoga,1.34405,14.25545
tchirgadji,1.384583333,14.24138333
koira_tegui,1.44955,14.207
tarzil,1.520616667,14.19013333
bankata_gourmantche,1.674366667,12.8405
baoule_foulbe,1.513366667,12.88895
gouba,1.7785,12.85091667
komatigalou,1.645583333,12.94283333
konandele,1.770216667,12.75056667
nanissongui,1.630016667,12.7386
peteli,1.438033333,12.9511
tombole_biga,1.4349,13.04386667
yirintaga,0,0
adare_birni,1.904716667,13.05715
bahondou,1.666783333,13.48725
barara,1.4145,13.28725
boudjoga,1.6412,13.05035
daoundou,1.746716667,13.24945
dianhoe,1.844466667,13.24753333
djamboudeke,1.842116667,13.25695
djoga,1.497733333,13.07973333
guidosi,1.55905,13.30021667
kiota,1.424216667,13.06355
kogorou_kouara_tegui,1.745083333,13.39391667
kogorou_kouara_zeno,1.74635,13.38525
libiri_hameaux,0,0
montoulli,0,0
saoura,1.46325,13.25625
seno_tcheguel,1.692516667,13.43068333
soudinko,1.470883333,13.26136667
tchelahi_gorou_banda,1.577183333,13.31331667
tolba,1.579016667,13.10738333
tombole_pabalouri,1.41135,13.06398333
torodi,1.7986,13.11806667
guidan_tanko_natike,0,0
mazadou,0,0
rougal_mani,7.739266667,14.55055
babakou_garin_mainonia_ii,9.541083333,13.97808333
wala,9.559516667,13.9747
zangan_guimba,9.692816667,13.82571667
garin_gagere,9.427183333,13.7658
korima_illa,9.582233333,13.88718333
sabon_gari,9.40325,13.82521667
baza,0,0
campement,0,0
damtcha,9.789183333,14.12593333
garin_djibrilou,9.671566667,14.16113333
n_gouwa_oukkou,9.784183333,14.20501667
birgi_garin_abdou,9.219383333,14.09538333
birgi_garin_goissa,9.216983333,14.11186667
garin_alh_yahaya,9.3326,14.3906
marassaki,9.257233333,14.20756667
sabon_gari_karambana,9.177483333,14.19836667
boulboule,9.216616667,12.87928333
dan_makia,9.329683333,12.81811667
gawon_yalan,9.45,13.03548333
abalago_majewa,9.6923,13.1431
gonga_saboua,0,0
mai_gamji,9.645083333,13.0961
daoutcha_wantassa,9.750266667,14.44956667
rijia_hardo_baki,9.45895,14.59138333
barnari_el_koudi,9.811533333,13.28125
kantamari,10.0205,13.49621667
karam_djadi,10.05523333,13.5052
tchouari,10.46591667,13.29806667
boulamba,10.73741667,14.01241667
dagui_lam,9.732116667,13.93971667
malari_gana,9.697116667,13.57336667
siminti,9.7696,13.9019
darindo,0,0
fassaram,10.39413333,14.51116667
foude,10.17735,14.28815
gadjaoun,0,0
madja_gangledi,0,0
tantalou,10.29348333,14.4716
tchabe,10.49216667,14.39625
tchaoura,9.936133333,14.50006667
angoual_leko,8.360583333,13.25233333
dan_rakoumi,8.266966667,13.2059
tounfafi_mainawa,8.392316667,13.38153333
garin_makada,8.6833,13.44991667
maiwando_bougage,8.714116667,13.47026667
zangon_malamaye,8.624,13.43051667
gazari,8.641866667,13.58871667
sannou,8.671716667,13.47221667
zongon_toudou,8.6381,13.51705
kouawale,8.507733333,13.60241667
tawachkale,8.380816667,13.63133333
guidan_saoudi,0,0
garin_farou,8.5818,13.391
edaaoua,8.392016667,13.32598333
guidan_elh_gazere,8.359433333,13.32653333
kaware_faski,8.389616667,13.30365
garin_(doudou)_touge,8.615633333,13.30891667
tchourounia,8.644033333,13.282
dan_doutsi,8.964633333,13.20451667
garin_elh_idim,0,0
guidan_dan_achiya,8.706283333,13.22575
kanguiwa_i,9.1199,12.87753333
gueni,8.444866667,13.0973
makeirawa,0,0
tatoufawa,8.314083333,13.16261667
illala_habou,9.442866667,13.57255
mayaki_riga,8.6943,12.94955
garin_arewa,8.990466667,13.42101667
garin_inna_jakou,8.871666667,13.44153333
garin_kouble,8.9717,13.37651667
tsamia_maka,9.050016667,13.32961667
kenyasabongari,9.0716,13.8439
magrami,9.17735,13.8583
in_kowa,0,0
kayarda,9.24705,13.76698333
garin_dallo,0,0
houk_talgrap,9.255883333,13.8261
garin_alhou,9.06645,14.00573333
garin_illiassou,9.0667,13.99656667
guidan_gambo,8.978583333,13.97505
garagoumsa,8.3825,13.6728
rouan_jigawa,8.7843,13.99475
awawara_sami,8.47955,14.68065
chipti_(guidan_koure),8.15055,14.67043333
dagouza,8.356883333,14.4242
garin_gona,8.4308,14.74091667
guidan_habou,8.338966667,14.52993333
guidan_lawan,8.52675,14.62956667
hay_chaibou,0,0
inkalgo,8.483516667,14.94831667
inkalgo_bouguage,8.485783333,14.92825
birgi_makada,8.65045,14.59635
goungari,8.669583333,14.75958333
guidan_assandi,0,0
guidan_zoulou,8.7453,14.15576667
malam_dodo,8.903016667,14.38125
tarka,8.83945,14.23863333
bachirgaga,8.7675,14.82751667
chaffa_haoussa,9.122283333,14.40688333
eria,9.401716667,14.58328333
maiganga,9.137833333,14.81663333
moucheri,8.82155,14.75995
tabanni_gangara,9.20725,14.49206667
gadjamko,10.0509,14.81793333
goria_boguidanona,11.11926667,15.60095
kandilwa_peulh,0,0
kirkime,10.01055,14.85836667
rijia_gatafi,0,0
rijia_yahaya,9.888816667,15.08513333
sadinga,11.49365,15.23821667
sani,0,0
garin_mai_goto,8.973983333,13.70035
garin_mama,9.0373,13.81081667
ali_yaro,8.9846,13.80928333
garin_elh_maman_issa,8.977633333,13.88573333
mandallan,8.904333333,13.84993333
garin_ideli_(kelnou_gourou),9.081333333,13.58273333
gawan_kwana,9.020333333,13.57666667
katsoukou,9.040783333,13.66036667
rerewa,9.07525,13.60478333
tambari_dan_kabao,9.035683333,13.70525
tapkin_mairam,8.948916667,13.69291667
zangouna_dinney_dinney_bougage_,0,0
dantchiro,7.811666667,13.61071667
gueza_karfa,7.58965,13.30403333
guidan_doutchi,7.692833333,13.30851667
guidan_mai_gochi,7.637516667,13.63593333
lahi_yaro,7.595433333,13.50945
madamba_toundoukou,7.63435,13.36866667
mai_gaoude,7.649833333,13.61368333
mai_koukou,7.732933333,13.53068333
tawalala,7.777833333,13.50313333
dan_gounaoua,7.438,13.50925
dan_yacouba,7.4246,13.36931667
gotche,7.536033333,13.43636667
guicki,7.522933333,13.66586667
guidan_barra,7.480666667,13.44335
hardo_ali,7.455066667,13.48585
hardo_maikano,7.563916667,13.53885
in_gobirawa,7.52935,13.4305
jibia_tamaizari_tsaki,7.453416667,13.46445
kordaoua,7.52285,13.54603333
koufan_bara,7.54455,13.66618333
koukan_souda,7.557666667,13.46741667
leko_douma,7.4468,13.47765
maberaoua,7.449333333,13.46986667
bada,6.9702,15.12385
boundou_baki_djadji,6.893733333,14.99568333
boundou_dalli,7.164583333,15.26225
boundou_oroji,6.710466667,15.14163333
boundou_riga,7.1142,15.2252
difhassane,6.666016667,15.14363333
dolero,6.961516667,15.08356667
facoranch,6.73625,14.9055
fourdou,6.931466667,15.03046667
hassan_bammo,7.0129,15.29953333
jangar_gari,6.579633333,14.91963333
rouga_koine,6.725766667,15.28618333
bakouba_zango,7.3088,15.10218333
bariki,7.152066667,14.9774
chillon_biri,7.201816667,14.92618333
garin_kouatche,7.25635,14.92385
garin_mahamadou,7.219183333,14.95523333
hardo_teza,7.225066667,14.97998333
mai_rana,7.275466667,14.93443333
massayaki_ama,7.1773,14.8774
rouga_djabe,7.375966667,15.06303333
sadikane,7.204333333,15.00603333
zongo_bilal_mountogue,7.312316667,14.8866
zongo_khalid,7.193333333,14.8974
zongo_mouloul,7.123533333,14.91105
zongo_zouba,7.279383333,14.99325
zongon_achagana,7.4193,15.08803333
banja,6.569183333,14.35626667
gachatti_goda_1,6.521533333,14.41946667
garin_jigo,6.6815,14.1518
koutchatcha,6.686133333,14.14698333
dodo_saidou,7.0215,14.66996667
rouga_jaoure,7.203383333,14.55403333
guidan_yahaya,6.83045,14.41316667
mago_gari,6.765433333,14.50793333
tiguilguelt,6.81315,14.54
garin_magagi,6.52945,13.97478333
gobron_marke,6.62345,14.11876667
nagouida,6.67675,13.9311
tachalawa,6.60155,13.9576
peulh_zoura,7.0124,14.0772
zongon_ali,7.150266667,14.29808333
zongon_koraou,6.943133333,14.20715
chafouta_tsohoua,7.25515,13.9511
gangara_chaibou_jadi_hassane,7.2335,13.7822
garin_gorge,7.1608,13.81393333
zongon_afanta,7.2165,13.99138333
soke_soke,6.897383333,14.80348333
borota_dan_biri,6.9506,13.94693333
peulh_oumarou_kote,6.953933333,13.95156667
dan_sarko_(intchi_ekade),7.493716667,14.6288
dawo_ga_ragga,7.445183333,14.57731667
garin_abou_dadinkoua,7.487233333,14.81333333
guidan_boka_tabbale,7.4935,14.65251667
inti,7.4206,14.81466667
rijia_elh_alou,7.575583333,14.6445
samori_dan_baki,7.511083333,14.54311667
tabchin_lebo,7.574083333,14.65723333
zongo_rabo,7.688116667,14.36381667
zongon_djibrila,7.49535,14.6946
angoua_sarki_aski,7.758266667,13.31476667
angoual_sarkin_boula,7.81775,13.4073
dodore_hardo_bello_kado,7.795183333,13.36513333
guidan_nahantsi,7.791433333,13.38373333
hardo_aguie,7.874333333,13.42995
rijial_elh_chaibou,7.898233333,13.36241667
rijiar_riga_peulh_i,7.82105,13.41833333
rijiar_riga_peulh_ii,7.812933333,13.43088333
angoual_adamou,8.1209,13.39375
angoual_galadima,7.99615,13.53793333
bougouzawa,7.948183333,13.42176667
bourley_ii,7.940983333,13.51951667
bourley_karhin_hali,7.945933333,13.53765
dan_mama,7.906183333,13.45595
dan_tsari,7.922483333,13.49215
fara,8.014283333,13.49945
gazaoua,7.914283333,13.52573333
goubaou,8.084966667,13.41061667
guidan_hardo_saley,8.0447,13.34211667
hardo_also_guereoje,7.95735,13.43653333
hardo_baneini,7.93415,13.42608333
hardo_bawabi_damana,7.890266667,13.47995
kai_kazzo,8.042966667,13.52001667
madobi,8.0031,13.56635
makerawa,8.16055,13.4936
rijia_ango,8.033166667,13.37381667
rougaguen_guilguige,7.87885,13.5339
sabon_lahi,7.841783333,13.51523333
sahia_rijiar_kanta,8.089066667,13.42776667
dan_maazou,6.9746,13.73221667
danfarou_saboua,6.879633333,13.91733333
dogon_bautchi_koudous,7.02245,13.82443333
garin_gonaou,6.944866667,13.74548333
garin_moutoun_daya,7.028933333,13.67563333
gouni_madra,6.763633333,13.72643333
kalgon_ajia_ii,7.221766667,13.66231667
karoussa,7.256883333,13.70933333
mai_karfi,6.906783333,13.7852
ouban_jada_bilo,6.780466667,13.7545
rouga_kalgon_mahamane,7.20525,13.66791667
barago_sarkin_aska,6.491833333,13.61781667
dan_dagtu_makaou,6.653866667,13.71205
dan_koullou,6.53825,13.6719
dan_tourke_tacha_hantsi,6.784866667,13.67435
farin_kougou,6.5272,13.62663333
gomo_gakaye,6.523183333,13.65798333
guidan_abdou,6.374316667,13.6498
guidan_alkali,6.5508,13.6259
guidan_kare,6.482566667,13.61776667
haukan_sara,6.483666667,13.66105
kabobi,6.491833333,13.61781667
lamisse,6.369766667,13.83746667
masko,6.521783333,13.81115
tchibaou_bawa,6.4861,13.72775
toulle_in_bougage,6.650766667,13.78678333
zangon_doson_zama,6.622233333,13.64598333
zongon_kourma_guidan_mahaman_,6.3314,13.718
ajefa,6.591216667,13.60728333
barade_peul,6.730316667,13.61685
garin_abara,6.922583333,13.5641
garin_barso,6.7843,13.6079
kouka_mai_kogo_sofoua,6.582733333,13.6053
maigueme,6.724733333,13.58895
malamai,6.4825,13.59916667
masso_masso,6.68395,13.61468333
rafin_wada,6.56925,13.64208333
sanguerewa_ii,6.484716667,13.59778333
zongo_allah_karabo,6.670983333,13.6308
kounkounrey_i,7.293516667,13.63351667
rouga_katogue,7.39005,13.61865
tagaza,7.286766667,13.55985
faga_gao,7.0209,13.60238333
garin_nari,6.628083333,13.4227
guidan_annabougou_kobbri,6.752116667,13.39996667
guidan_oumarou_datchili,6.923166667,13.52386667
magagin_rogo,7.076616667,13.5509
taoude,7.08435,13.52648333
tchadi,6.737433333,13.47806667
dan_kokouroun_foulani,7.425,13.125
doutchin_begoua,7.256483333,13.17791667
rouga_gueza,7.230916667,13.1829
rougague_hamblare,7.540366667,13.30216667
yangobirawa,7.51815,13.23365
namaroua,7.161483333,13.52878333
natsalle,7.148316667,13.5286
rigal_bogouari,7.204433333,13.45218333
tsabawa,7.274416667,13.42471667
dan_kade,6.999316667,13.62155
daouwrawa,7.028883333,13.12826667
ekio,7.087983333,13.07805
hardo_issoufou_magagi,7.15025,13.15256667
inkouregaou,7.040016667,13.10355
katsoulle,7.063383333,13.22011667
n_wala_peulh,7.107416667,13.22673333
rouga_garantche_nare,7.02745,13.08871667
rouga_tajae,7.096933333,13.22248333
tchida_fawa,7.157733333,13.14568333
tokarawa_tagabass,7.087766667,13.28213333
bargaja,7.095916667,13.29248333
faroun_serki,7.179383333,13.27276667
gangara_nachambe_ii,7.170933333,13.07321667
kahin_sarki_secteur,7.159516667,13.30671667
kountoumi,7.222366667,13.27426667
limantchi_secteur_3,7.159516667,13.30671667
moulle,6.894444444,13.33583333
baguega_peulh,7.010716667,13.27728333
dan_alia,7.033966667,13.41485
ingobirawa,6.8054,13.17118333
kaou,6.854983333,13.2944
karwari,7.057066667,13.4152
mai_gamdji,7.021016667,13.38156667
tarna,7.1126,13.45028333
bargaja,7.021216667,13.49246667
foura_guirka,6.998233333,13.4478
garin_bagouari,7.0557,13.40423333
riga_yarima,6.968216667,13.43136667
guijingo,7.550066667,14.13945
hanbouroum,7.37525,14.15015
jalo,7.561083333,13.98613333
tajaye,7.427516667,14.13726667
cp_peulh_hardo_damergou,7.9744,14.22168333
douman_kada,8.018633333,14.51871667
guidan_bailou,7.7399,14.13398333
guidan_itcha,7.74975,14.3063
maigachi,7.92245,14.46343333
rijia_elh_ali,7.950183333,14.47256667
zangon_mafara,7.883133333,14.20315
baochin_agar,7.24305,14.22723333
dajin_ango,7.36815,14.19795
dan_jima,7.390483333,14.43015
guidan_attanyo,7.260783333,14.13416667
hilio,7.338366667,14.4203
imbabakou,7.448416667,14.28178333
maidaraga,7.3649,14.43646667
na_ayya,7.4373,14.40471667
soke_soke_saboua,7.329233333,14.43506667
rougague_chimgue,7.921716667,14.13446667
yamboye,8.04335,14.04058333
dan_guiwa,7.731483333,13.80886667
kakou_issoufou,7.74495,13.75266667
tinkirana,7.88935,13.90158333
sarkin_haoussa,7.59035,13.84063333
zongon_losso,7.545983333,13.74061667
batchiri,7.588233333,14.14155
dan_askia,7.691883333,14.1412
magagi_bara_guidan_bara,7.599583333,14.21031667
rijia_sale,7.583933333,14.19928333
don_baoua_(tajaye),8.0972,13.58893333
gadaou,8.137133333,13.6004
tsogual,8.140466667,13.65913333
mantche,8.0864,13.51866667
angoual_akaou,8.158033333,13.37258333
angoual_el_kanta,8.26365,13.54315
angoual_elh_saidou,8.153033333,13.28451667
attile,8.3102,13.54701667
baban_dawa,8.33075,13.56411667
doutchin_hadiza,8.2051,13.55946667
kolma,8.197733333,13.30915
kourawa,8.184166667,13.40111667
rigiar_elh_yaou,8.333366667,13.36806667
rougage_koufan_maikafi,8.1609,13.3545
tawalala,8.3015,13.53696667
maifarou,8.33575,13.77548333
rouga_hardo_yerima_idi,8.181,13.73953333
rouga_sambo,8.15595,13.71811667
dajin_manzo,8.495566667,13.99043333
el_dania,8.26475,14.18063333
guidan_dan_sofo,8.454833333,14.04943333
guidan_el_gambo,8.324816667,14.32953333
guidan_falke,8.167,14.30995
guidan_nakore,8.459466667,14.01143333
tagaza,8.289583333,14.3198
zangon_yacoudi,8.351016667,14.25073333
zongo_maiguizo,8.279666667,14.15338333
guidan_gorka,7.969366667,13.67995
guidan_gorka_2,7.969366667,13.67995
nakay_dabo,8.0736,13.83853333
taramni_ii,7.81945,13.70958333
zongon_amatan,7.9867,13.80863333
biyo_kacharouwa,7.103016667,13.50618333
bouzou_dan_zambade,7.103016667,13.50618333
nouveau_carre,7.101633333,13.50485
soura_aladey,7.09555,13.51981667
zaria_i,7.112366667,13.51236667
mokoyo,7.098666667,13.495
sabon_gari,7.1031,13.499
zaria_ii,7.119883333,13.5097
ali_dan_sofo,7.1164,13.49123333
bourdja,7.110133333,13.4736
dan_goulbi,7.099083333,13.49063333
hassao,7.0914,13.49045
limantchi,7.0951,13.48958333
maradaoua,7.098666667,13.48725
yan_daka,7.096783333,13.492
